{
  "metadata": {
    "source": "customer_ltv_corrected_2025.xlsx via Finance MCP",
    "generatedAt": "2026-02-03",
    "notes": "Top 30 West customers with coordinates for map display"
  },
  "westCustomers": [
    {
      "name": "Kite Pharma",
      "city": "Santa Monica",
      "region": "LA",
      "territory": "LA BioMed",
      "lat": 34.0195,
      "lng": -118.4912,
      "revenue": 1962685,
      "revenue2024": 1010909,
      "gp": 19.1,
      "ltv": 5493777,
      "tenure": "6 years",
      "services": ["Staffing CBA", "Validation"],
      "trend": "growing",
      "tier": "C",
      "yoyGrowth": 94.2
    },
    {
      "name": "Amgen Inc.",
      "city": "Thousand Oaks",
      "region": "LA",
      "territory": "LA BioMed",
      "lat": 34.1706,
      "lng": -118.8376,
      "revenue": 1610100,
      "revenue2024": 1773744,
      "gp": 14.6,
      "ltv": 5992975,
      "tenure": "10+ years",
      "services": ["Staffing CBA", "IT Quality"],
      "trend": "declining",
      "tier": "C",
      "yoyGrowth": -9.2
    },
    {
      "name": "Crinetics Pharmaceuticals",
      "city": "San Diego",
      "region": "SanDiego",
      "territory": "Biotech Beach",
      "lat": 32.8801,
      "lng": -117.2340,
      "revenue": 911795,
      "revenue2024": 347647,
      "gp": 40.9,
      "ltv": 1300483,
      "tenure": "3 years",
      "services": ["QA Consulting", "Validation"],
      "trend": "growing",
      "tier": "A",
      "yoyGrowth": 162.3
    },
    {
      "name": "Enovis Corporation",
      "city": "Carlsbad",
      "region": "SanDiego",
      "territory": "Biotech Beach",
      "lat": 33.1581,
      "lng": -117.3506,
      "revenue": 710560,
      "revenue2024": 158303,
      "gp": 11.0,
      "ltv": 868863,
      "tenure": "2 years",
      "services": ["Staffing CBA"],
      "trend": "growing",
      "tier": "C",
      "yoyGrowth": 348.9
    },
    {
      "name": "Edwards Lifesciences",
      "city": "Irvine",
      "region": "LA",
      "territory": "LA BioMed",
      "lat": 33.6846,
      "lng": -117.8265,
      "revenue": 671546,
      "revenue2024": 851827,
      "gp": 28.6,
      "ltv": 2109014,
      "tenure": "5 years",
      "services": ["Validation", "QA"],
      "trend": "declining",
      "tier": "C",
      "yoyGrowth": -21.2
    },
    {
      "name": "Ionis Pharmaceuticals",
      "city": "Carlsbad",
      "region": "SanDiego",
      "territory": "Biotech Beach",
      "lat": 33.1420,
      "lng": -117.3100,
      "revenue": 635229,
      "revenue2024": 512095,
      "gp": 36.0,
      "ltv": 1788868,
      "tenure": "6 years",
      "services": ["QA Consulting", "Staffing"],
      "trend": "growing",
      "tier": "B",
      "yoyGrowth": 24.0
    },
    {
      "name": "Arrowhead Pharmaceuticals",
      "city": "Pasadena",
      "region": "LA",
      "territory": "LA BioMed",
      "lat": 34.1478,
      "lng": -118.1445,
      "revenue": 551694,
      "revenue2024": 486100,
      "gp": 40.1,
      "ltv": 1071554,
      "tenure": "3 years",
      "services": ["QA Consulting"],
      "trend": "growing",
      "tier": "A",
      "yoyGrowth": 13.5
    },
    {
      "name": "STAAR Surgical",
      "city": "Lake Forest",
      "region": "LA",
      "territory": "LA BioMed",
      "lat": 33.6469,
      "lng": -117.6891,
      "revenue": 496260,
      "revenue2024": 589500,
      "gp": 30.9,
      "ltv": 1261237,
      "tenure": "4 years",
      "services": ["Validation", "IT Quality"],
      "trend": "declining",
      "tier": "B",
      "yoyGrowth": -15.8
    },
    {
      "name": "Halozyme",
      "city": "San Diego",
      "region": "SanDiego",
      "territory": "Biotech Beach",
      "lat": 32.9158,
      "lng": -117.1197,
      "revenue": 482957,
      "revenue2024": 640500,
      "gp": 37.3,
      "ltv": 1688689,
      "tenure": "6 years",
      "services": ["Staffing CBA", "Validation"],
      "trend": "declining",
      "tier": "B",
      "yoyGrowth": -24.6
    },
    {
      "name": "Corcept Therapeutics",
      "city": "Menlo Park",
      "region": "NorCal",
      "territory": "Genetown",
      "lat": 37.4530,
      "lng": -122.1817,
      "revenue": 481861,
      "revenue2024": 379000,
      "gp": 41.2,
      "ltv": 1216148,
      "tenure": "4 years",
      "services": ["QA Consulting", "CSV"],
      "trend": "growing",
      "tier": "A",
      "yoyGrowth": 27.0
    },
    {
      "name": "Pfizer (West)",
      "city": "La Jolla",
      "region": "SanDiego",
      "territory": "Biotech Beach",
      "lat": 32.8473,
      "lng": -117.2742,
      "revenue": 453371,
      "revenue2024": 835000,
      "gp": 27.0,
      "ltv": 2616870,
      "tenure": "8+ years",
      "services": ["Staffing CBA", "Validation"],
      "trend": "declining",
      "tier": "C",
      "yoyGrowth": -45.7
    },
    {
      "name": "Santen Incorporated",
      "city": "Emeryville",
      "region": "NorCal",
      "territory": "Genetown",
      "lat": 37.8313,
      "lng": -122.2852,
      "revenue": 429274,
      "revenue2024": 156800,
      "gp": 26.4,
      "ltv": 615391,
      "tenure": "3 years",
      "services": ["QA Consulting"],
      "trend": "growing",
      "tier": "C",
      "yoyGrowth": 173.7
    },
    {
      "name": "Terumo Neuro",
      "city": "Aliso Viejo",
      "region": "LA",
      "territory": "LA BioMed",
      "lat": 33.5767,
      "lng": -117.7256,
      "revenue": 414907,
      "revenue2024": 249600,
      "gp": 35.8,
      "ltv": 683203,
      "tenure": "3 years",
      "services": ["Validation", "IT"],
      "trend": "growing",
      "tier": "B",
      "yoyGrowth": 66.2
    },
    {
      "name": "Takeda (West)",
      "city": "San Diego",
      "region": "SanDiego",
      "territory": "Biotech Beach",
      "lat": 32.8850,
      "lng": -117.2200,
      "revenue": 414330,
      "revenue2024": 850000,
      "gp": 24.6,
      "ltv": 1904177,
      "tenure": "6 years",
      "services": ["ServiceNow", "Validation"],
      "trend": "declining",
      "tier": "C",
      "yoyGrowth": -51.3
    },
    {
      "name": "Glaukos Corporation",
      "city": "San Clemente",
      "region": "LA",
      "territory": "LA BioMed",
      "lat": 33.4270,
      "lng": -117.6119,
      "revenue": 393645,
      "revenue2024": 414600,
      "gp": 26.5,
      "ltv": 1712276,
      "tenure": "6 years",
      "services": ["Validation"],
      "trend": "declining",
      "tier": "C",
      "yoyGrowth": -5.1
    },
    {
      "name": "Adaptive Biotechnologies",
      "city": "Seattle",
      "region": "PNW",
      "territory": "Cascadia",
      "lat": 47.6205,
      "lng": -122.3493,
      "revenue": 373643,
      "revenue2024": 25200,
      "gp": 24.5,
      "ltv": 584786,
      "tenure": "2 years",
      "services": ["QA Consulting"],
      "trend": "growing",
      "tier": "C",
      "yoyGrowth": 1385.4
    },
    {
      "name": "Tarsus Pharmaceuticals",
      "city": "Irvine",
      "region": "LA",
      "territory": "LA BioMed",
      "lat": 33.6840,
      "lng": -117.7940,
      "revenue": 366193,
      "revenue2024": 125800,
      "gp": 41.5,
      "ltv": 492051,
      "tenure": "2 years",
      "services": ["QA Consulting", "Validation"],
      "trend": "growing",
      "tier": "A",
      "yoyGrowth": 191.0
    },
    {
      "name": "Vaxcyte Inc",
      "city": "San Carlos",
      "region": "NorCal",
      "territory": "Genetown",
      "lat": 37.5072,
      "lng": -122.2608,
      "revenue": 345842,
      "revenue2024": 267000,
      "gp": 39.7,
      "ltv": 670944,
      "tenure": "2 years",
      "services": ["QA Consulting", "CSV"],
      "trend": "growing",
      "tier": "B",
      "yoyGrowth": 29.5
    },
    {
      "name": "Fujifilm Diosynth CA",
      "city": "San Diego",
      "region": "SanDiego",
      "territory": "Biotech Beach",
      "lat": 32.9050,
      "lng": -117.1550,
      "revenue": 321212,
      "revenue2024": 672000,
      "gp": 24.4,
      "ltv": 2008937,
      "tenure": "7 years",
      "services": ["Staffing CBA"],
      "trend": "declining",
      "tier": "C",
      "yoyGrowth": -52.2
    },
    {
      "name": "Kite/Gilead Subsidiary",
      "city": "Oceanside",
      "region": "SanDiego",
      "territory": "Biotech Beach",
      "lat": 33.1959,
      "lng": -117.3795,
      "revenue": 308843,
      "revenue2024": 1240000,
      "gp": 6.5,
      "ltv": 1548727,
      "tenure": "5 years",
      "services": ["Staffing CBA"],
      "trend": "declining",
      "tier": "C",
      "yoyGrowth": -75.1
    },
    {
      "name": "Benchling",
      "city": "San Francisco",
      "region": "NorCal",
      "territory": "Genetown",
      "lat": 37.7749,
      "lng": -122.4194,
      "revenue": 228436,
      "revenue2024": 296000,
      "gp": 16.8,
      "ltv": 945760,
      "tenure": "5 years",
      "services": ["IT Quality"],
      "trend": "declining",
      "tier": "C",
      "yoyGrowth": -22.8
    },
    {
      "name": "Spectranetics",
      "city": "Carlsbad",
      "region": "SanDiego",
      "territory": "Biotech Beach",
      "lat": 33.1500,
      "lng": -117.3200,
      "revenue": 220401,
      "revenue2024": 496000,
      "gp": 18.1,
      "ltv": 785250,
      "tenure": "4 years",
      "services": ["Staffing CBA"],
      "trend": "declining",
      "tier": "C",
      "yoyGrowth": -55.6
    },
    {
      "name": "Juno Therapeutics",
      "city": "San Diego",
      "region": "SanDiego",
      "territory": "Biotech Beach",
      "lat": 32.8900,
      "lng": -117.2000,
      "revenue": 211838,
      "revenue2024": 242700,
      "gp": 26.7,
      "ltv": 672863,
      "tenure": "4 years",
      "services": ["QA Consulting"],
      "trend": "declining",
      "tier": "C",
      "yoyGrowth": -12.7
    },
    {
      "name": "Eikon Therapeutics",
      "city": "Hayward",
      "region": "NorCal",
      "territory": "Genetown",
      "lat": 37.6688,
      "lng": -122.0808,
      "revenue": 189450,
      "revenue2024": 266000,
      "gp": 43.1,
      "ltv": 920650,
      "tenure": "4 years",
      "services": ["QA Consulting", "CSV"],
      "trend": "declining",
      "tier": "A",
      "yoyGrowth": -28.8
    },
    {
      "name": "CG Oncology",
      "city": "Irvine",
      "region": "LA",
      "territory": "LA BioMed",
      "lat": 33.6850,
      "lng": -117.8260,
      "revenue": 179741,
      "revenue2024": 4118,
      "gp": 38.8,
      "ltv": 183866,
      "tenure": "1 year",
      "services": ["QA Consulting", "Validation"],
      "trend": "growing",
      "tier": "B",
      "yoyGrowth": 4257.4
    },
    {
      "name": "Genentech",
      "city": "South San Francisco",
      "region": "NorCal",
      "territory": "Genetown",
      "lat": 37.6563,
      "lng": -122.4077,
      "revenue": 174012,
      "revenue2024": 218000,
      "gp": 20.3,
      "ltv": 793125,
      "tenure": "6 years",
      "services": ["Staffing", "QA"],
      "trend": "declining",
      "tier": "C",
      "yoyGrowth": -20.2
    },
    {
      "name": "Atara Biotherapeutics",
      "city": "South San Francisco",
      "region": "NorCal",
      "territory": "Genetown",
      "lat": 37.6550,
      "lng": -122.4100,
      "revenue": 172925,
      "revenue2024": 282000,
      "gp": 30.1,
      "ltv": 3310000,
      "tenure": "6 years",
      "services": ["Staffing CBA", "Validation"],
      "trend": "declining",
      "tier": "B",
      "yoyGrowth": -38.7
    },
    {
      "name": "Xencor",
      "city": "Monrovia",
      "region": "LA",
      "territory": "LA BioMed",
      "lat": 34.1481,
      "lng": -118.0028,
      "revenue": 162243,
      "revenue2024": 76400,
      "gp": 33.4,
      "ltv": 238643,
      "tenure": "2 years",
      "services": ["QA Consulting"],
      "trend": "growing",
      "tier": "B",
      "yoyGrowth": 112.4
    },
    {
      "name": "BioMarin Pharmaceutical",
      "city": "San Rafael",
      "region": "NorCal",
      "territory": "Genetown",
      "lat": 37.9735,
      "lng": -122.5311,
      "revenue": 133018,
      "revenue2024": 234000,
      "gp": 72.1,
      "ltv": 581018,
      "tenure": "5 years",
      "services": ["QA Consulting"],
      "trend": "declining",
      "tier": "A",
      "yoyGrowth": -43.2
    },
    {
      "name": "Apple Inc.",
      "city": "Cupertino",
      "region": "NorCal",
      "territory": "Genetown",
      "lat": 37.3318,
      "lng": -122.0312,
      "revenue": 126500,
      "revenue2024": 110000,
      "gp": 41.9,
      "ltv": 478500,
      "tenure": "4 years",
      "services": ["IT Quality"],
      "trend": "growing",
      "tier": "A",
      "yoyGrowth": 15.0
    }
  ],
  "summary": {
    "totalCustomers": 160,
    "displayedCustomers": 30,
    "byTerritory": {
      "Genetown": 10,
      "LA BioMed": 12,
      "Biotech Beach": 7,
      "Cascadia": 1
    },
    "totalRevenue2025": 17190000,
    "totalRevenue2024": 19630000,
    "yoyGrowth": -12.4,
    "blendedGP": 34.3,
    "totalLTV": 58570000,
    "openPipeline": 10860000
  },
  "territoryStats": {
    "BiotechBeach": { "customers": 147, "revenue": 9550000, "gp": 42.5 },
    "LABioMed": { "customers": 8, "revenue": 6470000, "gp": 22.0 },
    "Genetown": { "customers": 4, "revenue": 790000, "gp": 41.8 },
    "Cascadia": { "customers": 1, "revenue": 370000, "gp": 24.5 }
  }
}
